City_ID,City,Lat,Lng,Max Temp,Humidity,Cloudiness,Wind Speed,Country,Date
0,dudinka,69.4058,86.1778,48.34,64,1,8.38,RU,1722876385
1,uribia,11.7139,-72.266,94.08,44,85,8.17,CO,1722876974
2,tazovsky,67.4667,78.7,48.61,65,96,5.97,RU,1722876457
3,edinburgh of the seven seas,-37.0676,-12.3116,57.0,87,64,13.18,SH,1722876976
4,otjiwarongo,-20.4637,16.6477,67.73,20,0,0.69,NA,1722876977
5,cadale,2.7603,46.3222,76.93,80,13,9.27,SO,1722876978
6,misratah,32.3754,15.0925,86.72,53,0,4.76,LY,1722876979
7,blackmans bay,-43.0167,147.3167,50.74,74,95,0.89,AU,1722876980
8,vorkuta,67.5,64.0,48.6,66,12,3.55,RU,1722876981
9,barrouallie,13.2333,-61.2667,82.02,79,40,2.57,VC,1722876982
10,ushuaia,-54.8,-68.3,31.62,74,20,2.06,AR,1722876906
11,nuku'alofa,-21.1333,-175.2,66.54,82,20,1.54,TO,1722876984
12,hawaiian paradise park,19.5933,-154.9731,70.9,94,75,4.63,US,1722876985
13,georgetown,5.4112,100.3354,84.13,78,20,1.54,MY,1722876987
14,qaqortoq,60.7167,-46.0333,49.08,68,100,1.5,GL,1722876989
15,lai chau,22.3997,103.4517,66.07,97,92,1.23,VN,1722876990
16,lata,40.1629,-8.3327,83.48,47,0,4.84,PT,1722876991
17,badger,64.8,-147.5333,69.08,72,40,2.57,US,1722876541
18,lihue,21.9789,-159.3672,76.24,82,0,8.75,US,1722876504
19,albany,42.6001,-73.9662,85.95,62,39,0.45,US,1722876989
20,port-aux-francais,-49.35,70.2167,33.3,68,20,4.11,TF,1722876996
21,olonkinbyen,70.9221,-8.7187,43.92,95,96,2.67,SJ,1722876403
22,elblag,54.1522,19.4088,69.98,79,72,4.95,PL,1722876998
23,guane,22.2025,-84.0875,88.3,66,71,3.4,CU,1722876999
24,lebu,-37.6167,-73.65,51.42,66,100,2.27,CL,1722877001
25,constantia,44.1833,28.65,79.7,55,100,5.75,RO,1722877002
26,ilulissat,69.2167,-51.1,44.69,63,5,1.29,GL,1722877003
27,puerto ayora,-0.7393,-90.3518,75.16,78,76,5.19,EC,1722876410
28,bayanhongor,46.7167,100.1167,53.17,47,3,2.89,MN,1722877005
29,san luis de la loma,17.2706,-100.8939,85.78,66,97,3.07,MX,1722877006
30,kapuskasing,49.4169,-82.4331,68.09,42,75,4.12,CA,1722876722
31,santa teresa del tuy,10.2341,-66.6631,92.91,53,100,2.98,VE,1722877008
32,tiksi,71.6872,128.8694,50.52,90,99,2.93,RU,1722877009
33,tangalle,6.024,80.7911,80.01,81,99,5.31,LK,1722877010
34,xilin hot,43.9667,116.0333,68.0,45,63,2.93,CN,1722877011
35,dwarka,22.2394,68.9678,82.44,85,100,7.81,IN,1722877012
36,tweed heads,-28.1817,153.547,59.2,91,90,4.29,AU,1722877014
37,grytviken,-54.2811,-36.5092,20.73,76,100,4.24,GS,1722877015
38,yangju,37.8331,127.0617,81.73,86,99,0.94,KR,1722877016
39,minas de marcona,-15.2119,-75.1103,60.06,60,33,8.45,PE,1722877017
40,inhuma,-6.6683,-41.7078,93.0,23,21,3.4,BR,1722876732
41,horta,38.5333,-28.6333,80.24,87,20,6.17,PT,1722877019
42,saipan,15.1355,145.701,81.3,89,0,2.06,MP,1722877020
43,aasiaat,68.7098,-52.8699,36.82,90,84,1.93,GL,1722876442
44,ust-nera,64.5667,143.2,50.52,70,96,2.18,RU,1722876469
45,onguday,50.75,86.15,53.89,87,76,1.6,RU,1722877023
46,iqaluit,63.7506,-68.5145,44.33,93,100,1.54,CA,1722877024
47,holualoa,19.6228,-155.9522,71.44,89,40,2.57,US,1722876747
48,callao,-12.0667,-77.15,68.41,81,68,4.81,PE,1722876849
49,hermanus,-34.4187,19.2345,53.78,76,15,5.61,ZA,1722877028
50,chengdu,30.6667,104.0667,82.29,78,20,1.0,CN,1722877029
51,west island,-12.1568,96.8225,78.78,69,84,4.12,CC,1722877030
52,morondava,-20.2833,44.2833,72.57,72,0,5.13,MG,1722877031
53,kochubey,44.3861,46.5825,79.18,65,4,5.19,RU,1722877032
54,hell-ville,-13.4,48.2667,76.78,66,77,1.78,MG,1722876940
55,kodiak,57.79,-152.4072,53.11,100,100,4.63,US,1722877034
56,sassandra,4.95,-6.0833,76.12,81,80,2.77,CI,1722877035
57,adamstown,-25.066,-130.1015,66.81,66,38,6.01,PN,1722877036
58,manga,11.6636,-1.0731,83.97,68,91,4.23,BF,1722877037
59,alta,69.9689,23.2717,76.26,38,0,3.09,NO,1722877038
60,new norfolk,-42.7826,147.0587,51.93,76,100,2.62,AU,1722877040
61,lodwar,3.1191,35.5973,87.85,42,90,3.68,KE,1722877041
62,cotonou,6.3654,2.4183,80.58,78,40,7.2,BJ,1722877043
63,hemsby,52.6971,1.6918,78.06,71,95,3.02,GB,1722877044
64,zaozersk,69.4005,32.4476,50.36,83,10,3.01,RU,1722876663
65,tolbazy,54.0241,55.8825,60.37,92,80,2.2,RU,1722877046
66,puerto natales,-51.7236,-72.4875,34.25,80,40,0.0,CL,1722877047
67,pangoa,-12.1167,-73.0,88.48,40,7,2.22,PE,1722877048
68,wailua homesteads,22.0669,-159.378,75.63,81,0,8.75,US,1722877049
69,hasaki,35.7333,140.8333,77.4,86,12,1.6,JP,1722877051
70,anadyr,64.75,177.4833,34.3,100,75,4.0,RU,1722877052
71,haimen,23.1935,116.6142,80.49,88,46,1.04,CN,1722877054
72,la'ie,21.6477,-157.9253,78.12,81,100,0.89,US,1722876614
73,pontian kechil,1.4866,103.3896,79.11,81,43,3.41,MY,1722877056
74,klyuchi,52.2667,79.1667,67.78,57,62,2.29,RU,1722877057
75,waitangi,-43.9535,-176.5597,46.81,93,89,0.45,NZ,1722877058
76,la passe,45.5549,-0.8967,88.03,60,0,5.28,FR,1722876459
77,baiyin,36.5583,104.2081,76.06,50,54,1.45,CN,1722877060
78,ola,59.5833,151.2833,53.6,88,100,1.15,RU,1722876589
79,pago pago,-14.2781,-170.7025,77.99,73,6,3.4,AS,1722877062
80,ta`u,-14.2336,-169.5144,78.04,76,4,2.13,AS,1722877063
81,bredasdorp,-34.5322,20.0403,49.78,80,13,3.14,ZA,1722877064
82,avarua,-21.2078,-159.775,75.25,78,75,4.12,CK,1722876505
83,yellowknife,62.456,-114.3525,66.42,65,75,4.12,CA,1722877067
84,carnarvon,-24.8667,113.6333,63.91,59,0,3.53,AU,1722877068
85,ancud,-41.8697,-73.8203,46.45,85,100,8.86,CL,1722876643
86,palikir - national government center,6.9248,158.1611,75.94,88,40,1.54,FM,1722876621
87,beidao,34.5686,105.8933,71.13,88,0,1.66,CN,1722877072
88,gunjur,13.2019,-16.7339,82.47,78,75,4.12,GM,1722877073
89,chapaev,50.2,51.1667,81.54,40,85,7.93,KZ,1722876558
90,nova vicosa,-17.8919,-39.3719,78.58,58,14,4.23,BR,1722876667
91,remire-montjoly,4.9167,-52.2667,91.44,55,40,5.14,GF,1722877076
92,bovril,-31.3431,-59.4451,58.91,90,99,3.23,AR,1722877077
93,pantelimon,44.45,26.2,84.36,38,0,3.13,RO,1722877078
94,tres palos,18.1833,-101.6167,82.11,73,87,1.04,MX,1722876633
95,hithadhoo,-0.6,73.0833,84.52,72,100,3.44,MV,1722876569
96,mezhdurechensk,53.6942,88.0603,58.96,98,100,1.21,RU,1722877082
97,utrik,11.2278,169.8474,83.08,80,98,7.21,MH,1722877083
98,gobabis,-22.45,18.9667,61.92,23,19,5.49,NA,1722876914
99,guercif,34.2257,-3.3536,102.16,19,3,10.7,MA,1722876913
100,conchal,-22.3303,-47.1725,86.16,23,0,3.05,BR,1722877086
101,kirakira,-10.4544,161.9205,77.86,88,100,5.13,SB,1722877087
102,talnakh,69.4865,88.3972,48.96,64,0,2.08,RU,1722877088
103,fort bragg,35.139,-79.006,87.8,72,40,1.54,US,1722876808
104,trairi,-3.2778,-39.2689,84.7,55,44,7.47,BR,1722876890
105,port saint john's,-31.6229,29.5448,58.17,63,0,0.98,ZA,1722876819
106,yaransk,57.3033,47.8861,64.8,81,90,2.58,RU,1722877092
107,camayenne,9.535,-13.6878,82.49,78,40,5.14,GN,1722877094
108,puerto baquerizo moreno,-0.9,-89.6,70.79,94,75,2.57,EC,1722876762
109,kantunilkin,21.0917,-87.45,97.43,39,36,2.84,MX,1722877096
110,cabedelo,-6.9811,-34.8339,83.07,66,60,7.52,BR,1722876913
111,ribeira grande,38.5167,-28.7,81.0,83,20,6.17,PT,1722877098
112,coquimbo,-29.9533,-71.3436,56.93,82,40,4.63,CL,1722876947
113,port mathurin,-19.6833,63.4167,72.23,77,3,8.48,MU,1722877100
114,sao jose da coroa grande,-8.8978,-35.1478,78.96,62,14,5.62,BR,1722877101
115,afaahiti,-17.75,-149.2833,69.67,75,88,4.94,PF,1722876524
116,isafjordur,66.0755,-23.124,53.64,76,75,7.72,IS,1722877056
117,invercargill,-46.4,168.35,37.02,92,41,1.34,NZ,1722876466
118,bilibino,68.0546,166.4372,35.56,73,99,2.0,RU,1722877105
119,ordynskoye,54.3656,81.8994,59.76,96,86,3.55,RU,1722877107
120,smithers,54.7804,-127.1743,62.92,51,20,2.06,CA,1722877108
121,leua,48.2156,18.6071,72.5,44,85,5.74,SK,1722877109
122,longyearbyen,78.2186,15.6401,53.44,71,20,7.72,SJ,1722877110
123,hammerfest,70.6634,23.6821,73.85,43,0,4.12,NO,1722876740
124,canutama,-6.5339,-64.3831,101.34,20,4,2.43,BR,1722876852
125,salinas,36.6777,-121.6555,57.56,92,100,2.06,US,1722877113
126,crixas,-14.5489,-49.9692,90.91,18,0,4.14,BR,1722877114
127,belozersk,60.0326,37.7957,61.45,85,85,3.2,RU,1722877115
128,turan,16.0678,108.2208,82.38,83,20,1.54,VN,1722877116
129,malabar,-33.9667,151.25,52.11,85,100,3.09,AU,1722877117
130,taoudenni,22.6783,-3.9836,113.11,10,4,4.94,ML,1722876548
131,bir el ater,34.7449,8.0602,91.2,12,0,6.27,DZ,1722877119
132,mugia,43.1041,-9.2179,80.17,90,52,3.09,ES,1722877121
133,jining,35.405,116.5814,76.6,94,81,1.95,CN,1722877122
134,berdigestyakh,62.0989,126.6992,55.89,76,100,2.1,RU,1722877123
135,masterton,-40.9597,175.6575,36.1,95,0,0.97,NZ,1722877124
136,whitehorse,60.7161,-135.0538,62.1,62,20,1.03,CA,1722876696
137,bengkulu,-3.8004,102.2655,75.25,92,14,3.2,ID,1722877126
138,geraldton,-28.7667,114.6,48.61,93,14,5.14,AU,1722877127
139,atafu village,-8.5421,-172.5159,82.42,76,83,3.04,TK,1722876609
140,novodvinsk,64.4165,40.8122,56.95,86,100,1.68,RU,1722877129
141,hamilton,39.1834,-84.5333,91.38,58,0,2.57,US,1722876692
142,mutoko,-17.397,32.2268,64.22,16,3,1.73,ZW,1722877131
143,uturoa,-16.7333,-151.4333,79.18,69,100,5.44,PF,1722876741
144,tabou,4.423,-7.3528,77.58,76,61,3.93,CI,1722877133
145,port elizabeth,-33.918,25.5701,58.32,63,3,0.89,ZA,1722876934
146,hadibu,12.65,54.0333,78.03,80,88,7.98,YE,1722876748
147,fano,43.8204,13.0121,87.78,59,30,5.46,IT,1722877137
148,vadso,70.0744,29.7487,59.88,76,0,6.17,NO,1722877138
149,inhambane,-23.865,35.3833,73.38,78,75,5.81,MZ,1722877139
150,vila franca do campo,37.7167,-25.4333,79.21,67,48,4.71,PT,1722877140
151,thompson,55.7435,-97.8558,66.36,45,20,4.12,CA,1722877093
152,port macquarie,-31.4333,152.9167,55.08,97,100,0.89,AU,1722877142
153,olinda,-8.0089,-34.8553,83.93,58,40,6.17,BR,1722876941
154,kursk,51.7303,36.1939,71.8,65,0,1.0,RU,1722877144
155,moyale,3.5167,39.0584,74.28,48,70,3.6,KE,1722877145
156,vuktyl,63.8567,57.3094,53.49,77,99,3.6,RU,1722877146
157,cuenca,-2.8833,-78.9833,69.93,46,75,2.57,EC,1722877035
158,souillac,-20.5167,57.5167,68.38,77,20,0.0,MU,1722876689
159,hotan,37.0997,79.9269,90.97,22,37,0.94,CN,1722877150
160,simanggang,1.2472,111.4528,78.78,94,91,1.03,MY,1722877152
161,farkhar,36.5729,69.8578,74.32,27,0,2.44,AF,1722877153
162,mejit,10.2753,170.8646,83.05,79,100,6.81,MH,1722877154
163,sidi akkacha,36.4647,1.3026,106.09,32,0,4.29,DZ,1722877155
164,simplicio mendes,-7.8539,-41.9103,93.18,19,13,4.11,BR,1722877156
165,kingston,17.997,-76.7936,92.35,66,20,8.75,JM,1722876400
166,san patricio,28.017,-97.5169,91.17,49,0,1.77,US,1722877160
167,kosong,38.3788,128.4676,79.29,91,26,0.84,KR,1722877162
168,flying fish cove,-10.4217,105.6791,76.68,83,100,5.66,CX,1722877163
169,fale old settlement,-9.3852,-171.2468,81.91,79,100,4.97,TK,1722877164
170,adrar,20.5022,-10.0711,103.73,18,2,5.5,MR,1722877165
171,sittwe,20.15,92.9,78.84,91,100,4.16,MM,1722876705
172,puerto real,36.5282,-6.1901,91.62,60,12,3.21,ES,1722877167
173,novyy urgal,51.0736,132.5642,63.14,98,100,1.11,RU,1722877168
174,mili,6.0815,171.735,82.2,78,51,4.46,MH,1722877169
175,koregaon,18.65,74.0833,74.5,93,90,3.89,IN,1722877170
176,mount gambier,-37.8333,140.7667,40.91,100,52,2.42,AU,1722877171
177,ciudad lazaro cardenas,17.9583,-102.2,84.83,68,100,1.83,MX,1722877173
178,luanda,-8.8368,13.2343,71.6,78,0,4.63,AO,1722877122
179,isangel,-19.55,169.2667,67.8,67,28,4.9,VU,1722877175
180,mariehamn,60.0973,19.9348,67.86,73,0,2.57,AX,1722876902
181,lompoc,34.6391,-120.4579,59.41,96,100,0.0,US,1722877177
182,severo-yeniseyskiy,60.3725,93.0408,60.76,73,86,1.24,RU,1722876915
183,martuni,40.1377,45.3045,69.13,69,1,3.18,AM,1722877179
184,aykhal,66.0,111.5,45.66,87,13,7.31,RU,1722877180
185,saudarkrokur,65.7461,-19.6394,53.91,84,91,4.06,IS,1722877181
186,ascension,30.2169,-90.9001,95.05,63,0,1.54,US,1722877182
187,arraial do cabo,-22.9661,-42.0278,84.16,54,0,6.17,BR,1722877183
188,ulladulla,-35.35,150.4667,38.77,77,47,3.43,AU,1722877184
189,petrozavodsk,61.7849,34.3469,60.26,77,90,4.0,RU,1722877186
190,arendal,58.4615,8.7725,66.0,61,96,3.92,NO,1722877187
191,fortuna,40.5982,-124.1573,57.54,100,75,2.57,US,1722876660
192,maputsoe,-28.8833,27.9,46.54,32,0,1.8,LS,1722877189
193,happy valley-goose bay,53.3168,-60.3315,77.31,31,75,6.69,CA,1722876757
194,isla vista,34.4133,-119.861,95.34,88,40,3.09,US,1722876775
195,enewetak,11.3474,162.3373,83.23,76,98,2.37,MH,1722877192
196,kamen'-na-obi,53.7884,81.3423,59.67,92,57,2.36,RU,1722877193
197,coahuayana de hidalgo,18.7,-103.6583,89.24,57,81,1.64,MX,1722877194
198,osceola,28.042,-81.1242,83.79,69,100,9.22,US,1722877195
199,uzhur,55.3036,89.8339,61.5,88,100,2.02,RU,1722877196
200,college,64.8569,-147.8028,69.17,73,40,2.57,US,1722877197
201,lyantor,61.6195,72.1555,56.25,86,69,6.34,RU,1722877194
202,tofol,5.3248,163.0078,82.87,76,100,4.57,FM,1722877199
203,vorgashor,67.5833,63.95,47.7,65,11,4.45,RU,1722877201
204,tazacorte,28.629,-17.9293,78.15,80,20,7.2,ES,1722877202
205,pecos,31.4229,-103.4932,86.09,42,0,5.66,US,1722877142
206,stanley,54.868,-1.6985,74.5,69,96,4.57,GB,1722877204
207,sinan,34.8262,126.1086,77.11,90,98,1.26,KR,1722877205
208,oujda-angad,34.6805,-1.9076,92.03,40,0,8.75,MA,1722877206
209,quellon,-43.1167,-73.6167,46.22,91,100,8.58,CL,1722876444
210,colonia,50.9333,6.95,82.96,47,16,2.63,DE,1722876946
211,papatowai,-46.5619,169.4708,41.2,85,16,3.2,NZ,1722877211
212,carutapera,-1.195,-46.02,84.78,63,59,5.12,BR,1722877212
213,sydney mines,46.2367,-60.2177,82.35,79,75,3.58,CA,1722877213
214,port lincoln,-34.7333,135.8667,49.19,86,70,4.05,AU,1722877079
215,tukrah,32.5341,20.5791,85.41,59,0,4.67,LY,1722877215
216,borogontsy,62.6683,131.1683,55.89,92,100,3.39,RU,1722877216
217,la tuque,47.4334,-72.7824,72.99,35,21,3.1,CA,1722876963
218,brisas de zicatela,15.8369,-97.0419,85.42,66,67,2.24,MX,1722877218
219,tamanrasset,22.785,5.5228,96.71,14,40,4.12,DZ,1722876809
220,urengoy,65.9667,78.3667,52.59,63,100,4.01,RU,1722876744
221,el nido,11.1858,119.3956,77.14,92,96,4.08,PH,1722877222
222,bongouanou,6.6486,-4.1992,82.8,60,88,1.07,CI,1722877223
223,gadzhiyevo,69.2551,33.3362,56.73,70,0,4.33,RU,1722876722
224,cabo san lucas,22.8909,-109.9124,89.51,50,24,4.92,MX,1722877200
225,susuman,62.7833,148.1667,51.03,52,100,3.52,RU,1722876791
226,kudahuvadhoo,2.6708,72.8944,83.16,71,100,1.91,MV,1722877227
227,punta arenas,-53.15,-70.9167,33.91,75,0,5.14,CL,1722877137
228,itau de minas,-20.7394,-46.7522,84.67,26,0,3.55,BR,1722877229
229,peniche,39.3558,-9.3811,77.2,78,7,7.25,PT,1722877230
230,livingston,55.9029,-3.5226,70.21,77,75,8.23,GB,1722877232
231,nishinoomote,30.7333,131.0,83.7,77,18,3.1,JP,1722877233
232,udachny,66.4167,112.4,47.91,84,77,7.71,RU,1722877234
233,cockburn town,21.4612,-71.1419,82.87,83,0,7.98,TC,1722877235
234,yaren,-0.5472,166.916,83.48,72,98,5.24,NR,1722877236
235,ushibukamachi,32.1906,130.0228,82.78,85,30,2.37,JP,1722877237
236,codrington,-38.2667,141.9667,41.92,96,19,4.42,AU,1722877238
237,kegeyli shahar,42.7767,59.6078,89.69,19,3,4.67,UZ,1722877239
238,thunder bay,48.4001,-89.3168,73.31,43,75,3.09,CA,1722876699
239,tarawa,1.419,172.984,83.21,67,79,5.94,KI,1722877241
240,alice springs,-23.7,133.8833,40.55,93,0,0.0,AU,1722877243
241,fortuna foothills,32.6578,-114.4119,99.55,42,0,8.75,US,1722877244
242,jamestown,42.097,-79.2353,84.45,69,75,6.69,US,1722877245
243,batticaloa,7.7102,81.6924,81.7,80,91,4.24,LK,1722877246
244,nueva gerona,21.8833,-82.8,90.1,60,82,3.42,CU,1722877247
245,eyl,7.9803,49.8164,77.04,79,63,10.34,SO,1722877248
246,saint-philippe,-21.3585,55.7679,69.39,75,56,2.6,RE,1722877249
247,novoanninskiy,50.5287,42.6747,70.48,89,100,1.53,RU,1722877250
248,ketchikan,55.3422,-131.6461,64.35,63,29,1.53,US,1722877251
249,ashland,40.8167,-82.2665,87.03,66,28,5.59,US,1722877105
250,truth or consequences,33.1284,-107.2528,88.03,37,0,5.14,US,1722877253
251,margate,51.3813,1.3862,76.69,56,3,0.89,GB,1722877254
252,tshikapa,-6.4167,20.8,86.58,17,12,1.89,CD,1722877255
253,thurgoona,-36.0451,146.9919,38.66,100,11,0.91,AU,1722877257
254,ludington,43.9553,-86.4526,73.49,86,75,0.45,US,1722877258
255,petropavlovsk-kamchatsky,53.0452,158.6483,52.39,100,100,1.0,RU,1722877259
256,ghat,24.9647,10.1728,104.05,8,0,9.54,LY,1722877260
257,mersa matruh,31.3525,27.2453,84.4,79,0,7.2,EG,1722877261
258,prainha,-1.8,-53.48,93.42,37,4,2.4,BR,1722877262
259,santa vitoria do palmar,-33.5189,-53.3681,58.78,88,100,5.32,BR,1722877263
260,itaituba,-4.2761,-55.9836,93.36,43,20,2.06,BR,1722877265
261,astrakhan,46.3497,48.0408,84.07,48,20,3.0,RU,1722877266
262,margaret river,-33.95,115.0667,60.93,86,55,7.62,AU,1722877171
263,gebeit,21.0667,36.3167,89.94,41,96,1.28,SD,1722877269
264,amga,60.8953,131.9608,52.52,96,100,4.41,RU,1722877270
265,bethel,41.3712,-73.414,88.41,60,0,0.89,US,1722877174
266,ramshir,30.8946,49.4092,105.66,7,0,3.84,IR,1722877272
267,murzuq,25.9155,13.9184,102.85,9,0,4.54,LY,1722877273
268,east london,-33.0153,27.9116,54.54,62,0,2.57,ZA,1722876874
269,zabaykal'sk,49.6333,117.3167,65.07,60,48,1.93,RU,1722877275
270,el porvenir,13.7617,-87.3458,83.53,52,57,0.92,HN,1722877276
271,yuzhno-kurilsk,44.0306,145.8556,61.05,100,100,1.96,RU,1722877277
272,karratha,-20.7377,116.8463,65.91,36,0,3.53,AU,1722877279
273,dila,6.4167,38.3167,63.9,93,99,1.03,ET,1722877280
274,san antonio de pale,-1.4014,5.6325,72.27,72,96,4.27,GQ,1722876852
275,bamboo flat,11.7,92.7167,78.89,89,75,2.57,IN,1722877282
276,monrovia,6.3005,-10.7969,82.17,78,64,5.31,LR,1722877284
277,coxim,-18.5067,-54.76,97.45,16,0,3.84,BR,1722877230
278,puerto aysen,-45.4,-72.7,41.25,98,100,2.35,CL,1722877223
279,tuy hoa,13.0833,109.3,77.59,90,50,1.83,VN,1722877287
280,vila velha,-20.3297,-40.2925,80.55,75,40,5.66,BR,1722877289
281,juan griego,11.0817,-63.9655,84.33,74,61,5.66,VE,1722877290
282,chinde,26.8212,87.7095,76.32,90,93,1.52,NP,1722877291
283,soio,-6.1349,12.3689,71.04,76,28,3.16,AO,1722877292
284,alnwick,55.4132,-1.7056,74.68,69,100,8.23,GB,1722877293
285,charters towers,-20.1,146.2667,56.86,93,39,3.25,AU,1722877294
286,vilyuchinsk,52.9306,158.4028,53.87,88,100,0.81,RU,1722877296
287,paracuru,-3.41,-39.0306,82.11,56,44,8.44,BR,1722877297
288,el granada,37.5027,-122.4694,68.18,86,100,3.09,US,1722877298
289,graaff-reinet,-32.2522,24.5308,55.17,23,0,1.22,ZA,1722877299
290,baekrajan,-6.7674,110.8541,74.61,73,12,2.48,ID,1722877301
291,st. john's,47.5649,-52.7093,73.27,90,100,10.29,CA,1722877302
292,derzhavinsk,51.1,66.3167,72.27,49,50,3.24,KZ,1722877303
293,arar,30.9753,41.0381,102.22,6,0,5.14,SA,1722877304
294,yichang,30.7144,111.2847,81.97,88,98,0.7,CN,1722877305
295,pandan,14.0453,124.1694,80.49,87,100,3.64,PH,1722877306
296,kiama,-34.6833,150.8667,53.01,77,100,1.34,AU,1722877307
297,kavaratti,10.5669,72.642,81.1,86,100,4.86,IN,1722877308
298,mashhad,36.297,59.6062,84.34,32,0,3.09,IR,1722877309
299,bel ombre,-4.6167,55.4167,78.64,89,40,5.14,SC,1722877310
300,daigo,36.7667,140.35,74.1,99,10,1.4,JP,1722877311
301,matamey,13.4231,8.4749,84.33,57,100,6.18,NE,1722877314
302,dryden,49.7833,-92.7503,66.49,59,40,4.12,CA,1722877222
303,pauini,-7.7136,-66.9764,99.61,27,5,2.02,BR,1722877316
304,tura,25.5198,90.2201,76.08,97,100,2.75,IN,1722876883
305,palmerston north,-40.35,175.6167,43.77,95,98,0.86,NZ,1722877318
306,pechora,65.1472,57.2244,55.9,82,98,1.06,RU,1722877319
307,hassi messaoud,31.6804,6.0729,103.86,15,0,2.06,DZ,1722877320
308,kijang,35.2442,129.2139,78.53,90,66,2.94,KR,1722877321
309,dunedin,-45.8742,170.5036,40.8,91,29,2.46,NZ,1722877174
310,elverum,60.8819,11.5623,70.03,66,98,1.12,NO,1722877323
311,sotnikovskoye,45.0039,43.7772,75.06,66,60,4.6,RU,1722877324
312,byron bay,-28.65,153.6167,58.6,86,92,4.76,AU,1722877326
313,chemolgan,43.1897,76.5292,73.06,33,100,2.38,KZ,1722877327
314,nikolo-berezovka,56.1242,54.1557,62.22,92,11,2.48,RU,1722877328
315,shevchenko,48.5,35.0,75.45,36,51,3.0,UA,1722877329
316,nemuro,43.3236,145.575,61.7,100,100,0.22,JP,1722877330
317,iquique,-20.2208,-70.1431,62.64,71,16,3.4,CL,1722877207
318,bakanas,44.8081,76.2772,84.51,24,24,5.27,KZ,1722877332
319,russkaya polyana,49.417,31.9201,73.35,40,48,3.04,UA,1722877333
320,el calafate,-50.3408,-72.2768,32.94,88,79,2.37,AR,1722876887
321,faya-largeau,17.9257,19.1043,90.9,47,60,7.02,TD,1722877333
322,hun,29.1268,15.9477,102.87,11,0,5.96,LY,1722877336
323,cole harbour,44.6724,-63.4751,79.18,81,99,1.79,CA,1722877338
324,castillos,-34.1667,-53.8333,59.23,77,96,4.78,UY,1722876881
325,nuuk,64.1835,-51.7216,49.87,71,100,2.68,GL,1722877122
326,plouzane,48.3833,-4.6167,70.12,83,100,6.69,FR,1722877341
327,nebraska city,40.6767,-95.8592,92.57,48,0,4.12,US,1722877343
328,fredericton,45.9454,-66.6656,78.42,54,75,4.12,CA,1722877344
329,kavieng,-2.5744,150.7967,80.56,79,100,3.74,PG,1722877345
330,neryungri,56.6709,124.6491,54.09,97,100,1.83,RU,1722877346
331,myeik,12.4333,98.6,78.89,87,91,0.77,MM,1722877347
332,tolanaro,-25.0319,46.9987,71.67,83,0,2.06,MG,1722877348
333,warmbad,-28.45,18.7333,53.56,30,0,5.06,NA,1722877350
334,vera,-29.4593,-60.2126,67.17,77,100,1.99,AR,1722877351
335,ilha de mocambique,-15.0342,40.7358,75.38,73,2,5.33,MZ,1722877352
336,kem',64.9555,34.5793,51.76,75,99,3.86,RU,1722876941
337,pathalgaon,22.5667,83.4667,76.37,89,100,2.34,IN,1722877354
338,fisterra,42.9049,-9.2629,80.02,93,40,4.72,ES,1722877355
339,santa ana de yacuma,-13.75,-65.4333,93.15,46,13,4.12,BO,1722877356
340,motueka,-41.1333,173.0167,39.09,85,7,1.83,NZ,1722877357
341,semenivka,52.1783,32.5818,68.52,58,100,2.3,UA,1722877358
342,antsiranana,-12.2787,49.2917,72.66,79,61,6.09,MG,1722877359
343,ugoofaaru,5.6667,73.0,82.45,74,100,2.59,MV,1722877360
344,chulakkurgan,43.765,69.1814,82.08,19,10,5.08,KZ,1722877361
345,noumea,-22.2763,166.4572,69.01,99,51,3.57,NC,1722877363
346,koryazhma,61.3143,47.1691,60.17,97,84,1.94,RU,1722877364
347,mirnyy,62.5353,113.9611,56.14,59,26,1.93,RU,1722877365
348,santa luzia,-19.7697,-43.8514,79.7,50,40,4.63,BR,1722877194
349,tome,-36.6167,-72.95,48.81,77,91,1.62,CL,1722877285
350,touros,-5.1989,-35.4608,81.52,63,30,8.34,BR,1722877106
351,ribas do rio pardo,-20.4431,-53.7592,93.88,17,0,4.13,BR,1722877369
352,sinabang,2.4803,96.3801,79.3,83,69,1.47,ID,1722877370
353,rouissat,31.9243,5.3502,105.87,13,0,2.06,DZ,1722877371
354,minna,9.6139,6.5569,80.73,71,89,1.55,NG,1722877373
355,teknaf,20.8624,92.3058,79.29,91,100,3.18,BD,1722877374
356,rongelap,11.1635,166.8941,82.89,80,100,7.07,MH,1722877376
357,aswan,24.0934,32.907,99.7,34,75,6.69,EG,1722877377
358,labytnangi,66.6572,66.4183,49.98,60,99,5.98,RU,1722877378
359,shangzhi,45.2167,127.9667,70.79,96,77,2.24,CN,1722877379
360,palmer,42.1584,-72.3287,87.67,57,20,1.54,US,1722877210
361,toliara,-23.35,43.6667,70.03,73,1,2.35,MG,1722877381
362,nar'yan-mar,67.6713,53.087,48.54,75,4,6.88,RU,1722877382
363,rio grande,-32.035,-52.0986,64.51,92,92,5.51,BR,1722877211
364,huarmey,-10.0681,-78.1522,68.81,68,11,5.33,PE,1722877146
365,juneau,58.3019,-134.4197,62.6,67,0,2.06,US,1722877387
366,luganville,-15.5333,167.1667,73.02,68,67,4.52,VU,1722877275
367,szamotuly,52.612,16.5779,72.14,52,79,4.57,PL,1722877390
368,gao,16.6362,1.637,96.21,37,34,4.06,ML,1722877280
369,polyarnyy,69.1989,33.4478,57.78,66,0,4.34,RU,1722877393
370,takanabe,32.1333,131.5,82.29,89,5,1.27,JP,1722877394
371,queenstown,-31.8976,26.8753,50.0,23,0,2.45,ZA,1722877395
372,tarija,-21.5355,-64.7296,75.11,35,0,2.06,BO,1722877357
373,magadan,59.5667,150.8,53.64,85,100,1.51,RU,1722877397
374,bubaque,11.2833,-15.8333,78.96,85,93,6.19,GW,1722876928
375,kulhudhuffushi,6.6221,73.07,82.36,76,100,3.14,MV,1722877400
376,eureka,40.8021,-124.1637,58.24,93,95,3.14,US,1722877310
377,lijiang,26.8688,100.2207,58.77,95,79,0.98,CN,1722877403
378,bonthe,7.5264,-12.505,79.25,81,88,4.78,SL,1722877249
379,saint augustine beach,29.8505,-81.2654,80.6,89,100,12.35,US,1722877405
380,sitka,57.0531,-135.33,64.29,68,20,0.0,US,1722877406
381,aleksandrovsk-sakhalinskiy,50.8975,142.1561,57.13,85,64,3.15,RU,1722877407
382,muravlenko,63.7898,74.523,50.43,87,100,5.85,RU,1722877408
383,alotau,-10.3069,150.4462,73.45,96,100,1.86,PG,1722877409
384,general conesa,-40.1,-64.4333,65.91,27,87,6.94,AR,1722877411
385,hilo,19.7297,-155.09,71.33,87,100,3.09,US,1722877412
386,sanibel,26.449,-82.0223,88.03,83,100,2.68,US,1722877413
387,thief river falls,48.1191,-96.1812,65.35,77,20,4.12,US,1722877232
388,suntar,62.1444,117.6319,53.83,94,75,1.8,RU,1722877415
389,khandyga,62.6667,135.6,55.15,91,100,1.68,RU,1722877416
390,beau vallon,-20.4189,57.6953,67.21,82,20,0.0,MU,1722877417
391,manta,-0.95,-80.7333,80.38,74,20,5.66,EC,1722877418
392,narasannapeta,18.4167,84.05,80.33,89,100,3.22,IN,1722877419
393,yantongshan,43.2919,126.0094,70.41,96,73,2.11,CN,1722877420
394,mount pleasant,32.7941,-79.8626,78.01,97,40,7.2,US,1722877308
395,ribadesella,43.4614,-5.0596,77.95,77,8,1.56,ES,1722877422
396,ulaangom,49.9811,92.0667,63.03,63,51,10.49,MN,1722877423
397,tchibanga,-2.85,11.0333,75.99,60,87,3.47,GA,1722877425
398,ghanzi,-21.5667,21.7833,65.05,21,0,3.26,BW,1722877426
399,phan rang-thap cham,11.5667,108.9833,77.13,89,38,1.43,VN,1722877231
400,karoi,-16.8099,29.6925,66.88,16,0,1.93,ZW,1722877428
401,sofiyivka,48.0493,33.8746,76.82,29,55,5.3,UA,1722877429
402,ikast,56.1388,9.1577,71.24,53,75,1.54,DK,1722877430
403,chonchi,-42.6128,-73.8092,47.12,97,100,2.88,CL,1722877332
404,las juntas,19.4167,-104.7,81.93,56,71,1.83,MX,1722877432
405,yafran,32.0633,12.5286,83.3,64,0,8.43,LY,1722877433
406,laguna,38.421,-121.4238,87.08,53,0,3.6,US,1722877434
407,guerrero negro,27.9769,-114.0611,79.02,55,100,3.75,MX,1722876945
408,juankoski,63.0667,28.35,71.56,58,40,2.37,FI,1722877436
409,manokwari,-0.8667,134.0833,79.0,80,76,3.41,ID,1722877294
410,newman,37.3138,-121.0208,84.54,23,0,1.17,US,1722877439
411,howrah,22.5892,88.3103,82.4,89,40,2.06,IN,1722877440
412,saint-joseph,-21.3667,55.6167,68.38,78,38,2.62,RE,1722877441
413,tam ky,15.5667,108.4833,76.82,90,36,1.66,VN,1722877442
414,namtsy,62.7161,129.6658,57.85,94,100,2.43,RU,1722877443
415,bodaybo,57.8506,114.1933,57.96,94,73,0.43,RU,1722877444
416,gumla,23.05,84.55,76.82,87,100,1.74,IN,1722877445
417,acajutla,13.5928,-89.8275,84.94,67,100,2.51,SV,1722877446
418,salinopolis,-0.6136,-47.3561,83.8,68,64,7.23,BR,1722877447
419,kayangel,8.0823,134.7173,83.12,76,99,3.27,PW,1722877448
420,vernon,50.2581,-119.2691,81.93,51,0,1.03,CA,1722877431
421,jacksonville,30.3322,-81.6556,80.64,94,100,12.35,US,1722877207
422,big spring,32.2504,-101.4787,88.25,48,0,4.63,US,1722877451
423,nova olinda do norte,-3.8881,-59.0942,100.06,22,14,2.7,BR,1722877453
424,glusburn,53.9,-2.0,74.82,79,94,6.98,GB,1722877454
425,wladyslawowo,54.7909,18.4009,69.48,83,73,4.54,PL,1722877455
426,nema,57.5067,50.5011,61.56,90,55,1.56,RU,1722877456
427,iwon-up,40.3231,128.6553,75.74,97,80,0.94,KP,1722877457
428,machico,32.7,-16.7667,81.72,63,40,6.17,PT,1722877458
429,knyaze-volkonskoye,48.4642,135.4567,71.94,95,90,3.55,RU,1722877459
430,kargopol',61.5071,38.9456,60.71,80,100,2.84,RU,1722877460
431,rawson,-43.3002,-65.1023,51.69,61,100,3.33,AR,1722877461
432,trevelin,-43.0858,-71.4639,42.28,96,100,0.43,AR,1722877462
433,iskateley,67.6803,53.1512,48.56,75,4,6.84,RU,1722877463
434,trujillo,-8.116,-79.03,66.16,77,75,1.03,PE,1722877333
435,ressano garcia,-25.442,31.9913,67.19,71,80,4.2,MZ,1722877466
436,morehead city,34.7229,-76.726,85.01,80,20,4.12,US,1722877201
437,kerikeri,-35.2268,173.9474,43.43,91,7,1.91,NZ,1722877468
438,kuqa,41.7278,82.9364,89.44,20,61,2.51,CN,1722877227
439,pacasmayo,-7.4006,-79.5714,68.56,69,53,6.75,PE,1722877470
440,luza,60.6308,47.2512,59.59,97,74,1.97,RU,1722877471
441,praia da vitoria,38.7333,-27.0667,82.65,69,20,4.55,PT,1722877472
442,gaalkacyo,6.7697,47.4308,89.56,35,100,4.18,SO,1722877473
443,havre,49.5833,0.3333,73.8,68,0,5.14,FR,1722877474
444,ulsteinvik,62.3432,5.8487,65.32,87,100,0.45,NO,1722877475
445,bereznik,62.8551,42.7072,60.93,80,98,2.09,RU,1722877476
446,matiri,-10.75,34.9,61.88,43,1,1.62,TZ,1722877477
447,askoy,60.4092,5.226,66.96,68,75,7.2,NO,1722877479
448,qamdo,31.1667,97.2333,49.03,56,14,0.92,CN,1722877480
449,terenos,-20.4422,-54.8603,92.91,21,0,4.63,BR,1722877481
450,shira,54.4911,89.9531,59.41,90,100,2.48,RU,1722877482
451,slave lake,55.2834,-114.769,62.58,72,100,1.03,CA,1722877431
452,mut,36.6439,33.4389,88.81,34,42,2.74,TR,1722877485
453,pavlodar,52.3,76.95,62.4,82,0,3.0,KZ,1722877486
454,primorsk,46.7348,36.3443,78.58,52,41,3.71,UA,1722877487
455,coruripe,-10.1256,-36.1756,77.58,72,29,5.66,BR,1722877488
456,nabire,-3.3667,135.4833,73.76,94,78,1.76,ID,1722877489
457,ixtapa,20.7,-105.2,90.23,70,40,2.24,MX,1722877490
458,bardai,11.65,7.2333,78.19,73,99,4.55,NG,1722877491
459,timimoun,29.2639,0.231,115.18,6,40,2.57,DZ,1722877493
460,ndjole,-0.1783,10.7649,82.35,56,99,3.17,GA,1722877494
461,qina,26.1642,32.7267,101.84,12,86,4.42,EG,1722877495
462,lucas,41.6501,-83.6666,83.14,78,40,4.63,US,1722877496
463,malango,-2.9627,119.9001,64.69,99,38,1.05,ID,1722877497
464,haiku-pauwela,20.9219,-156.3051,74.25,81,0,3.13,US,1722877498
465,puerto plata,19.7934,-70.6884,91.31,62,20,7.2,DO,1722877499
466,gordonvale,-17.0936,145.7842,64.71,100,49,1.69,AU,1722877500
467,vallenar,-28.5708,-70.7581,66.7,31,100,1.89,CL,1722877502
468,richards bay,-28.783,32.0377,62.67,67,80,2.0,ZA,1722877503
469,novaya igirma,57.1334,103.9112,56.88,70,5,0.67,RU,1722877505
470,jumelles,47.4351,-0.1037,80.78,52,0,1.78,FR,1722877506
471,ulanhot,46.0833,122.0833,68.77,71,0,2.84,CN,1722877507
472,santa terezinha,-29.9002,-50.0904,63.54,94,77,2.27,BR,1722877508
473,sao joao da barra,-21.6403,-41.0511,82.49,76,0,7.79,BR,1722877509
474,natal,-5.795,-35.2094,84.42,58,40,9.77,BR,1722877231
475,cefalu,38.0386,14.0229,87.55,86,1,1.34,IT,1722877511
476,stettler,52.3168,-112.7186,61.75,84,95,4.6,CA,1722877512
477,berezovyy,51.6667,135.7,61.7,95,100,1.62,RU,1722877513
478,la ronge,55.1001,-105.2842,66.45,45,100,2.06,CA,1722877514
479,altamira,-3.2033,-52.2064,89.69,58,40,0.0,BR,1722877516
480,n'zeto,-7.2312,12.8666,70.25,80,33,4.46,AO,1722877517
481,imam qasim,32.298,44.6828,102.25,11,0,3.55,IQ,1722877519
482,daru,-9.0763,143.2092,75.52,89,99,6.61,PG,1722877520
483,vidalia,32.2177,-82.4135,75.31,94,100,8.23,US,1722877277
484,saynshand,44.8824,110.1163,77.47,28,11,6.93,MN,1722877522
485,biltine,14.5333,20.9167,74.14,86,100,2.08,TD,1722877480
486,valparaiso,-33.0393,-71.6273,55.99,87,100,6.17,CL,1722877474
487,keflavik,64.0049,-22.5624,57.11,94,100,3.09,IS,1722877525
488,frederikssund,55.8396,12.069,69.19,66,78,1.34,DK,1722877526
489,cururupu,-1.8283,-44.8683,86.92,52,69,2.53,BR,1722877369
490,banfora,10.6333,-4.7667,80.44,81,99,3.05,BF,1722877529
491,sisimiut,66.9395,-53.6735,46.76,74,81,2.38,GL,1722877530
492,ad dilam,23.9915,47.1627,102.61,7,41,4.22,SA,1722877532
493,prado,-17.3411,-39.2208,77.31,64,0,3.72,BR,1722877533
494,jeddah,21.5169,39.2192,98.46,34,0,7.2,SA,1722877534
495,sao gabriel da cachoeira,-0.1303,-67.0892,82.2,83,75,1.54,BR,1722877535
496,at taraf,25.3628,49.725,100.94,28,51,3.84,SA,1722877536
497,lyubimets,41.8333,26.0833,84.87,36,72,0.38,BG,1722877537
498,ridgecrest,35.6225,-117.6709,98.69,14,20,0.0,US,1722877538
499,leer,53.2316,7.461,78.01,66,66,2.41,DE,1722877539
500,pervomayskoye,43.919,46.7102,76.53,64,13,3.8,RU,1722877540
501,taltal,-25.4,-70.4833,61.79,67,0,3.27,CL,1722877541
502,kailua-kona,19.6406,-155.9956,76.96,90,0,2.06,US,1722877542
503,fenghua,29.6563,121.4064,85.89,74,0,5.0,CN,1722877543
504,metlili chaamba,32.2667,3.6333,103.14,13,0,2.06,DZ,1722877544
505,changji,44.0167,87.3167,88.59,29,20,3.0,CN,1722877546
506,kholmsk,47.0511,142.0569,60.69,89,99,1.19,RU,1722877547
507,campbell river,50.0163,-125.2446,69.46,63,20,3.6,CA,1722877548
508,auki,-8.7676,160.7034,72.36,97,100,2.91,SB,1722877549
509,kenora,49.8167,-94.4337,67.17,55,75,2.06,CA,1722877550
510,hadjout,36.5126,2.4138,93.33,27,0,3.58,DZ,1722877551
511,port alfred,-33.5906,26.891,54.18,72,1,0.89,ZA,1722877552
512,tavsanli,39.5424,29.4987,73.27,56,45,3.67,TR,1722877553
513,puerto armuelles,8.2833,-82.8667,84.18,78,22,1.34,PA,1722877554
514,tsiombe,-25.3,45.4833,65.91,80,19,2.04,MG,1722877555
515,belyy yar,53.6039,91.3903,64.29,82,0,8.0,RU,1722877556
516,tromso,69.6496,18.957,73.42,46,0,3.6,NO,1722877557
517,katsuura,35.1333,140.3,76.17,91,41,1.58,JP,1722877559
518,yanam,16.7333,82.2167,82.0,84,100,1.41,IN,1722877561
519,brookings,44.3114,-96.7984,77.25,91,40,7.72,US,1722877562
520,bucerias,20.75,-105.3333,90.99,70,40,0.0,MX,1722877563
521,mount isa,-20.7333,139.5,64.17,68,100,6.17,AU,1722877564
522,mukalla,14.5425,49.1242,84.6,77,87,1.11,YE,1722877565
523,conception bay south,47.4999,-52.9981,73.04,91,100,6.61,CA,1722877557
524,thinadhoo,0.5333,72.9333,83.48,74,100,5.72,MV,1722877567
525,sarangani,5.4033,125.4636,83.75,74,93,2.12,PH,1722877568
526,weno,7.4515,151.8468,80.55,83,40,2.06,FM,1722877569
527,darwin,-12.4611,130.8418,73.38,88,100,1.54,AU,1722877570
528,jogindarnagar,31.9833,76.7667,73.51,91,93,0.88,IN,1722877572
529,curillo,1.0333,-75.9191,74.7,94,96,0.92,CO,1722877573
530,ujae,8.9322,165.7642,82.83,74,100,2.12,MH,1722877574
531,basseterre,17.2948,-62.7261,89.98,71,20,9.26,KN,1722877575
532,portel,-1.9356,-50.8211,94.28,38,42,2.66,BR,1722877576
533,verkh-chebula,56.0308,87.6218,62.28,90,96,3.48,RU,1722877577
534,bam,29.106,58.357,99.12,17,92,1.04,IR,1722877578
535,lospalos,-8.5186,127.0025,69.91,90,80,2.63,TL,1722877579
536,ramanuj ganj,23.8,83.7,77.38,89,97,1.73,IN,1722877580
537,conduaga,8.862,117.4893,78.35,90,59,2.28,PH,1722877581
538,port augusta,-32.5,137.7667,44.98,82,8,1.17,AU,1722877583
539,waitara,-38.925,174.25,49.5,86,49,1.63,NZ,1722877584
540,marsh harbour,26.5412,-77.0636,85.28,71,99,8.45,BS,1722877585
541,andovoranto,-18.95,49.1,69.17,90,3,2.22,MG,1722877586
542,zapolyarnyy,69.4154,30.8136,58.28,64,7,2.68,RU,1722877587
543,soto la marina,23.7667,-98.2167,89.56,54,38,2.96,MX,1722877588
544,sosnovo-ozerskoye,52.5249,111.5418,51.96,79,9,1.69,RU,1722877589
545,yoko,5.5333,12.3167,68.7,93,91,1.7,CM,1722877590
546,santa elena de uairen,4.6167,-61.1333,78.96,58,29,4.82,VE,1722877591
547,lazaro cardenas,17.9583,-102.2,84.83,68,100,1.83,MX,1722877592
548,tarnogskiy gorodok,60.4997,43.5761,60.22,96,95,1.93,RU,1722877593
549,ebolowa,2.9,11.15,73.38,87,96,1.88,CM,1722877594
550,pama,11.2497,0.7075,82.81,76,93,2.49,BF,1722877595
551,lakatoro,-16.0999,167.4164,71.62,66,71,6.03,VU,1722877597
552,champerico,14.3,-91.9167,91.94,71,82,2.17,GT,1722877598
553,muroto-misakicho,33.2833,134.15,83.08,85,24,2.81,JP,1722877599
554,martapura,-3.4167,114.85,78.89,89,100,0.51,ID,1722877600
555,sao paulo de olivenca,-3.3783,-68.8725,94.48,43,28,1.74,BR,1722877601
556,cuyo,10.8525,121.0086,83.14,73,99,2.72,PH,1722877602
557,sur,22.5667,59.5289,84.54,68,88,2.53,OM,1722877603
558,lame,10.4415,9.2396,75.18,81,69,3.38,NG,1722877604
559,ha'il,27.5219,41.6907,95.02,23,0,6.17,SA,1722877605
560,andergrove,-21.0833,149.1833,59.65,90,11,2.09,AU,1722877606
561,saint-pierre,-21.3393,55.4781,69.48,73,0,3.09,RE,1722877607
562,nova sintra,14.8667,-24.7167,81.77,67,16,1.63,CV,1722877608
563,pemangkat,1.1667,108.9667,80.28,79,14,2.85,ID,1722877610
564,bozeman,45.6796,-111.0386,73.2,55,0,0.0,US,1722877500
565,matoury,4.8483,-52.3317,91.36,55,75,4.63,GF,1722877612
566,tataouine,32.9297,10.4518,88.47,27,0,6.15,TN,1722877613
567,sotouboua,8.5667,0.9833,80.01,80,94,2.13,TG,1722877614
568,libenge,3.65,18.6333,80.64,61,88,0.38,CD,1722877615
569,lorengau,-2.0226,147.2712,79.74,85,97,3.52,PG,1722877616
570,gamba,-2.65,10.0,72.36,73,73,3.47,GA,1722877617
571,glace bay,46.1969,-59.957,82.15,76,99,1.58,CA,1722877618
572,kristiansund,63.1115,7.732,68.05,87,0,2.06,NO,1722877439
573,kiunga,-6.1219,141.2906,72.55,99,100,1.42,PG,1722877623
574,sanctuary point,-35.1114,150.629,50.2,75,89,2.91,AU,1722877625
575,kumanovo,42.1322,21.7144,86.5,25,85,5.19,MK,1722877447
